{
"type": "FeatureCollection",
"name": "vias_ferratas",
"crs": { "type": "name", "properties": { "name": "urn:ogc:def:crs:OGC:1.3:CRS84" } },
"features": [
{ "type": "Feature", "properties": { "fid": 1, "nombre": "Via Ferrata", "descripcion": "Fermeture pour maintenance du 9 au 20 juin 25.\nDécouvrez la via ferrata  située à 4 kms des Eaux-Bonnes, sur la route de Gourette, dans les Pyrénées.\nLa falaise est équipée d'échelles et protégée par des câbles. Cette paroi de 150 mètres de dénivelé permet de goûter aux joies de l’escalade avec un maximum de sécurité. 3 Itinéraires vous sont proposés, de facile à très difficile, variant de 1h à 3h. Le site est en accès libre pour les  sportifs qui ont l'équipement complet : baudrier, 2 longes, amortisseur de choc et casque. Pour les novices, l'accompagnement par les professionnels de montagne (matériel fourni) est indispensable.", "email": "info@valleedossau.com", "fotos": "https://cdt64.media.tourinsoft.eu/upload/1440VIA-FERRATACapture.jpg, https://cdt64.media.tourinsoft.eu/upload/1440VIA-FERRATACapture--2-.jpg, https://cdt64.media.tourinsoft.eu/upload/1440VIA-FERRATAVia-Ferrata-2.jpg, https://cdt64.media.tourinsoft.eu/upload/1440VIA-FERRATAVia-Ferrata0275.jpg", "fpret_fuer": null, "tpo_acceso": null, "tpo_recorr": null, "tpo_regres": null, "long_equip": null, "desnivel": null, "z": null, "husler": null }, "geometry": { "type": "Point", "coordinates": [ -0.3538538, 42.9636537 ] } },
{ "type": "Feature", "properties": { "fid": 2, "nombre": "Via Ferrata du Pont Napoléon", "descripcion": null, "email": null, "fotos": null, "fpret_fuer": null, "tpo_acceso": null, "tpo_recorr": null, "tpo_regres": null, "long_equip": null, "desnivel": null, "z": null, "husler": null }, "geometry": { "type": "Point", "coordinates": [ -0.005882, 42.8583916 ] } },
{ "type": "Feature", "properties": { "fid": 3, "nombre": "Via Ferrata Chaos de Coumély", "descripcion": null, "email": null, "fotos": null, "fpret_fuer": null, "tpo_acceso": null, "tpo_recorr": null, "tpo_regres": null, "long_equip": null, "desnivel": null, "z": null, "husler": null }, "geometry": { "type": "Point", "coordinates": [ 0.004203, 42.7665614 ] } },
{ "type": "Feature", "properties": { "fid": 4, "nombre": "Via Ferrata Les Alias", "descripcion": null, "email": null, "fotos": null, "fpret_fuer": null, "tpo_acceso": null, "tpo_recorr": null, "tpo_regres": null, "long_equip": null, "desnivel": null, "z": null, "husler": null }, "geometry": { "type": "Point", "coordinates": [ -0.1002519, 42.9069718 ] } },
{ "type": "Feature", "properties": { "fid": 5, "nombre": "Via Ferrata Falaise du Then", "descripcion": null, "email": null, "fotos": null, "fpret_fuer": null, "tpo_acceso": null, "tpo_recorr": null, "tpo_regres": null, "long_equip": null, "desnivel": null, "z": null, "husler": null }, "geometry": { "type": "Point", "coordinates": [ -0.1980961, 42.9555619 ] } },
{ "type": "Feature", "properties": { "fid": 6, "nombre": "Vía ferrata de Escarrilla", "descripcion": null, "email": null, "fotos": null, "fpret_fuer": 1, "tpo_acceso": "5'", "tpo_recorr": "10'", "tpo_regres": "15'", "long_equip": 70.0, "desnivel": 65, "z": 1199.6799990566799, "husler": "K1" }, "geometry": { "type": "Point", "coordinates": [ -0.315195805471334, 42.738545964849017 ] } },
{ "type": "Feature", "properties": { "fid": 7, "nombre": "Vía ferrata El Escuacho", "descripcion": null, "email": null, "fotos": null, "fpret_fuer": 3, "tpo_acceso": "8'", "tpo_recorr": "2 h 20'", "tpo_regres": "10'", "long_equip": 315.0, "desnivel": 145, "z": 1115.3164247556399, "husler": "K4" }, "geometry": { "type": "Point", "coordinates": [ -0.309171215075589, 42.730969536528541 ] } },
{ "type": "Feature", "properties": { "fid": 8, "nombre": "Vía ferrata Articalena", "descripcion": null, "email": null, "fotos": null, "fpret_fuer": 2, "tpo_acceso": "12'", "tpo_recorr": "1 h", "tpo_regres": "45'", "long_equip": 400.0, "desnivel": 212, "z": 1209.0453053430301, "husler": "K2" }, "geometry": { "type": "Point", "coordinates": [ -0.705329194711684, 42.849947688990937 ] } },
{ "type": "Feature", "properties": { "fid": 9, "nombre": "Vía ferrata Santo Cristo", "descripcion": null, "email": null, "fotos": null, "fpret_fuer": 2, "tpo_acceso": "5'", "tpo_recorr": "1 h 10'", "tpo_regres": "25'", "long_equip": 300.0, "desnivel": 187, "z": 409.58895573587, "husler": "K2" }, "geometry": { "type": "Point", "coordinates": [ 0.262951043846309, 42.106021538724725 ] } },
{ "type": "Feature", "properties": { "fid": 10, "nombre": "Vía ferrata Cubilillo Os Fills", "descripcion": null, "email": null, "fotos": null, "fpret_fuer": 3, "tpo_acceso": "1 h 30'", "tpo_recorr": "30'", "tpo_regres": "2 h", "long_equip": 500.0, "desnivel": 440, "z": 963.72357058783996, "husler": "K3" }, "geometry": { "type": "Point", "coordinates": [ -0.707821488164065, 42.335870565732208 ] } },
{ "type": "Feature", "properties": { "fid": 11, "nombre": "Vía ferrata de Sacs", "descripcion": null, "email": null, "fotos": null, "fpret_fuer": 4, "tpo_acceso": "7'", "tpo_recorr": "1 h 20'", "tpo_regres": "35'", "long_equip": 550.0, "desnivel": 350, "z": 1219.80796837662, "husler": "K3" }, "geometry": { "type": "Point", "coordinates": [ 0.534695411997734, 42.619154887923706 ] } },
{ "type": "Feature", "properties": { "fid": 12, "nombre": "Vía ferrata Lizara", "descripcion": null, "email": null, "fotos": null, "fpret_fuer": 2, "tpo_acceso": "1'", "tpo_recorr": "15'", "tpo_regres": "12'", "long_equip": 150.0, "desnivel": 80, "z": 1473.7797611666199, "husler": "K2" }, "geometry": { "type": "Point", "coordinates": [ -0.630588381209277, 42.763501661192635 ] } },
{ "type": "Feature", "properties": { "fid": 13, "nombre": "Vía ferrata de Peña Rueba", "descripcion": null, "email": null, "fotos": null, "fpret_fuer": 2, "tpo_acceso": "1 h 40'", "tpo_recorr": "2 h 20'", "tpo_regres": "30'", "long_equip": 600.0, "desnivel": 550, "z": 681.17015712108002, "husler": "K3" }, "geometry": { "type": "Point", "coordinates": [ -0.766889156577606, 42.352096308735725 ] } },
{ "type": "Feature", "properties": { "fid": 14, "nombre": "Vía ferrata Espolón de la Virgen", "descripcion": null, "email": null, "fotos": null, "fpret_fuer": 3, "tpo_acceso": "40'", "tpo_recorr": "40'", "tpo_regres": "50'", "long_equip": 250.0, "desnivel": 146, "z": 743.26521406784002, "husler": "K2" }, "geometry": { "type": "Point", "coordinates": [ -0.080660417364253, 42.290738130246943 ] } },
{ "type": "Feature", "properties": { "fid": 15, "nombre": "Vía ferrata Del Puente", "descripcion": null, "email": null, "fotos": null, "fpret_fuer": 1, "tpo_acceso": "3'", "tpo_recorr": "15'", "tpo_regres": "7'", "long_equip": 150.0, "desnivel": 30, "z": 645.39035174786, "husler": "K1" }, "geometry": { "type": "Point", "coordinates": [ -0.080917760181631, 42.270498246559441 ] } },
{ "type": "Feature", "properties": { "fid": 16, "nombre": "Vía ferrata Peñas Juntas", "descripcion": null, "email": null, "fotos": null, "fpret_fuer": 2, "tpo_acceso": "25'", "tpo_recorr": "45'", "tpo_regres": "20'", "long_equip": 200.0, "desnivel": 80, "z": 472.99189814691999, "husler": "K1" }, "geometry": { "type": "Point", "coordinates": [ -0.079838563991539, 42.148397838874622 ] } },
{ "type": "Feature", "properties": { "fid": 17, "nombre": "Vía ferrata de Santa Elena", "descripcion": null, "email": null, "fotos": null, "fpret_fuer": 1, "tpo_acceso": "2'", "tpo_recorr": "15'", "tpo_regres": "25'", "long_equip": 200.0, "desnivel": 95, "z": 975.14382403333002, "husler": "K1" }, "geometry": { "type": "Point", "coordinates": [ -0.323098725313728, 42.661196804097287 ] } },
{ "type": "Feature", "properties": { "fid": 18, "nombre": "Vía ferrata Cascada del Sorrosal", "descripcion": null, "email": null, "fotos": null, "fpret_fuer": 3, "tpo_acceso": "5'", "tpo_recorr": "1 h 30'", "tpo_regres": "20'", "long_equip": 610.0, "desnivel": 126, "z": 987.54242247027003, "husler": "K3" }, "geometry": { "type": "Point", "coordinates": [ -0.127731650696498, 42.605380629804571 ] } },
{ "type": "Feature", "properties": { "fid": 19, "nombre": "Vía ferrata Castellaso", "descripcion": null, "email": null, "fotos": null, "fpret_fuer": 3, "tpo_acceso": "3'", "tpo_recorr": "40'", "tpo_regres": "20'", "long_equip": 280.0, "desnivel": 237, "z": 1129.04706723253, "husler": "K3" }, "geometry": { "type": "Point", "coordinates": [ 0.470514523090139, 42.562058784771125 ] } },
{ "type": "Feature", "properties": { "fid": 20, "nombre": "Vía ferrata Foradada del Toscar", "descripcion": null, "email": null, "fotos": null, "fpret_fuer": 4, "tpo_acceso": "15'", "tpo_recorr": "1 h 55'", "tpo_regres": "35'", "long_equip": 450.0, "desnivel": 240, "z": 1135.24229384207, "husler": "K4" }, "geometry": { "type": "Point", "coordinates": [ 0.33965043031788, 42.416740976228255 ] } },
{ "type": "Feature", "properties": { "fid": 21, "nombre": "Vía ferrata Croqueta de Obarra", "descripcion": null, "email": null, "fotos": null, "fpret_fuer": 4, "tpo_acceso": "5'", "tpo_recorr": "2 h 35'", "tpo_regres": "45'", "long_equip": 1000.0, "desnivel": 355, "z": 1036.05698557201, "husler": "K4" }, "geometry": { "type": "Point", "coordinates": [ 0.597704296393651, 42.399110067244678 ] } },
{ "type": "Feature", "properties": { "fid": 22, "nombre": "Vía ferrata Peña del Morral", "descripcion": null, "email": null, "fotos": null, "fpret_fuer": 2, "tpo_acceso": "10'", "tpo_recorr": "20'", "tpo_regres": "15'", "long_equip": 150.0, "desnivel": 112, "z": 547.2882581911, "husler": "K1" }, "geometry": { "type": "Point", "coordinates": [ 0.334278384584071, 42.188025223387235 ] } },
{ "type": "Feature", "properties": { "fid": 23, "nombre": "Vía ferrata Castellot de Baells", "descripcion": null, "email": null, "fotos": null, "fpret_fuer": 2, "tpo_acceso": "2'", "tpo_recorr": "10'", "tpo_regres": "12'", "long_equip": 70.0, "desnivel": 25, "z": 824.88678016679, "husler": "K2" }, "geometry": { "type": "Point", "coordinates": [ 0.460077202961304, 41.990810095918789 ] } },
{ "type": "Feature", "properties": { "fid": 24, "nombre": "Vía ferrata Sergi", "descripcion": null, "email": null, "fotos": null, "fpret_fuer": 2, "tpo_acceso": "20'", "tpo_recorr": "35'", "tpo_regres": "20'", "long_equip": 300.0, "desnivel": 159, "z": 525.90327766861003, "husler": "K2" }, "geometry": { "type": "Point", "coordinates": [ 0.563960379369756, 41.880225368734074 ] } },
{ "type": "Feature", "properties": { "fid": 25, "nombre": "Vía ferrata Roies Pinyana", "descripcion": null, "email": null, "fotos": null, "fpret_fuer": 4, "tpo_acceso": "20'", "tpo_recorr": "35'", "tpo_regres": "20'", "long_equip": 180.0, "desnivel": 159, "z": 514.02195574553002, "husler": "K4" }, "geometry": { "type": "Point", "coordinates": [ 0.566182213624694, 41.879827379703592 ] } },
{ "type": "Feature", "properties": { "fid": 26, "nombre": "Vía ferrata Duendes del Sorrosal", "descripcion": null, "email": null, "fotos": null, "fpret_fuer": 1, "tpo_acceso": "2'", "tpo_recorr": "30'", "tpo_regres": "30'", "long_equip": 250.0, "desnivel": 120, "z": 906.57970413832993, "husler": "K1" }, "geometry": { "type": "Point", "coordinates": [ -0.125110577599244, 42.60460127662774 ] } },
{ "type": "Feature", "properties": { "fid": 27, "nombre": "Vía ferrata Canal del Palomo", "descripcion": null, "email": null, "fotos": null, "fpret_fuer": 4, "tpo_acceso": "2'", "tpo_recorr": "1 h 35'", "tpo_regres": "35'", "long_equip": 275.0, "desnivel": 100, "z": 731.69960202709001, "husler": "K4" }, "geometry": { "type": "Point", "coordinates": [ -0.28798001636019, 42.23871934917436 ] } },
{ "type": "Feature", "properties": { "fid": 28, "nombre": "Vía ferrata de Refogons (Campo)", "descripcion": null, "email": null, "fotos": null, "fpret_fuer": null, "tpo_acceso": "20'", "tpo_recorr": "50'", "tpo_regres": "30'", "long_equip": 110.0, "desnivel": 80, "z": 680.0, "husler": "K4" }, "geometry": { "type": "Point", "coordinates": [ 0.395552999163043, 42.393970174960849 ] } },
{ "type": "Feature", "properties": { "fid": 29, "nombre": "Vía ferrata Pared de Iserías", "descripcion": null, "email": null, "fotos": null, "fpret_fuer": null, "tpo_acceso": "20'", "tpo_recorr": "1 h 50'", "tpo_regres": "35'", "long_equip": 410.0, "desnivel": 205, "z": 1360.0, "husler": "K3+" }, "geometry": { "type": "Point", "coordinates": [ -0.507163058900993, 42.762294845815902 ] } },
{ "type": "Feature", "properties": { "fid": 30, "nombre": "Vía ferrata Tossal de Miravet", "descripcion": null, "email": null, "fotos": null, "fpret_fuer": 4, "tpo_acceso": "17'", "tpo_recorr": "1 h 40'", "tpo_regres": "40'", "long_equip": 470.0, "desnivel": 240, "z": 1138.0, "husler": "K4" }, "geometry": { "type": "Point", "coordinates": [ 0.733665099397537, 42.413088031706764 ] } },
{ "type": "Feature", "properties": { "fid": 31, "nombre": "Vía ferrata Lo Pas de la Savina", "descripcion": null, "email": null, "fotos": null, "fpret_fuer": 3, "tpo_acceso": "25'", "tpo_recorr": "2 h 30'", "tpo_regres": "40'", "long_equip": 450.0, "desnivel": 220, "z": 420.0, "husler": "K4" }, "geometry": { "type": "Point", "coordinates": [ 0.60267715590037, 41.961655844296033 ] } }
]
}
