{
"type": "FeatureCollection",
"name": "zonas_bano_Huesca",
"crs": { "type": "name", "properties": { "name": "urn:ogc:def:crs:OGC:1.3:CRS84" } },
"features": [
{ "type": "Feature", "properties": { "fid": 24.0, "localId": "ES241C2042631", "link": "https://nayadeciudadano.sanidad.gob.es/Splayas/ciudadano/ciudadanoDownloadAction.do?tipoEntidad=4&tipo=1&codigoEntidad=16904", "nombre": "EMBALSE BUBAL SALLENT DE GÁLLEGO" }, "geometry": { "type": "Point", "coordinates": [ -0.310400000028896, 42.70849999957391 ] } },
{ "type": "Feature", "properties": { "fid": 25.0, "localId": "ES241C2042324", "link": "https://nayadeciudadano.sanidad.gob.es/Splayas/ciudadano/ciudadanoDownloadAction.do?tipoEntidad=4&tipo=1&codigoEntidad=16337", "nombre": "EMBALSE LANUZA SALLENT DE GÁLLEGO" }, "geometry": { "type": "Point", "coordinates": [ -0.323699999400168, 42.762499999974317 ] } },
{ "type": "Feature", "properties": { "fid": 21.0, "localId": "ES241C1871969", "link": "https://nayadeciudadano.sanidad.gob.es/Splayas/ciudadano/ciudadanoDownloadAction.do?tipoEntidad=4&tipo=1&codigoEntidad=17457", "nombre": "EMBALSE JOAQUIN COSTA PUEBLA DE CASTRO (LA)" }, "geometry": { "type": "Point", "coordinates": [ 0.312599999557746, 42.133199999827951 ] } },
{ "type": "Feature", "properties": { "fid": 18.0, "localId": "ES241C0582680", "link": "https://nayadeciudadano.sanidad.gob.es/Splayas/ciudadano/ciudadanoDownloadAction.do?tipoEntidad=4&tipo=1&codigoEntidad=18196", "nombre": "RIO ALCANADRE BIERGE 02" }, "geometry": { "type": "Point", "coordinates": [ -0.090539999781015, 42.173360000077295 ] } },
{ "type": "Feature", "properties": { "fid": 40.0, "localId": "ES243C0952575", "link": "https://nayadeciudadano.sanidad.gob.es/Splayas/ciudadano/ciudadanoDownloadAction.do?tipoEntidad=4&tipo=1&codigoEntidad=17479", "nombre": "EMBALSE DE SAN BARTOLOME EJEA DE LOS CABALLEROS" }, "geometry": { "type": "Point", "coordinates": [ -1.154900000466072, 42.213999999745248 ] } },
{ "type": "Feature", "properties": { "fid": 19.0, "localId": "ES241C0662326", "link": "https://nayadeciudadano.sanidad.gob.es/Splayas/ciudadano/ciudadanoDownloadAction.do?tipoEntidad=4&tipo=1&codigoEntidad=16715", "nombre": "RIO ARA BOLTAÑA" }, "geometry": { "type": "Point", "coordinates": [ 0.0660000004608, 42.444100000153497 ] } },
{ "type": "Feature", "properties": { "fid": 20.0, "localId": "ES241C1092681", "link": "https://nayadeciudadano.sanidad.gob.es/Splayas/ciudadano/ciudadanoDownloadAction.do?tipoEntidad=4&tipo=1&codigoEntidad=18197", "nombre": "RIO ARA FISCAL 02" }, "geometry": { "type": "Point", "coordinates": [ -0.001310000349305, 42.466529999792328 ] } },
{ "type": "Feature", "properties": { "fid": 22.0, "localId": "ES241C1892327", "link": "https://nayadeciudadano.sanidad.gob.es/Splayas/ciudadano/ciudadanoDownloadAction.do?tipoEntidad=4&tipo=1&codigoEntidad=16928", "nombre": "RIO BELLOS PUÉRTOLAS" }, "geometry": { "type": "Point", "coordinates": [ 0.129400000125714, 42.505400000401835 ] } },
{ "type": "Feature", "properties": { "fid": 23.0, "localId": "ES241C1892379", "link": "https://nayadeciudadano.sanidad.gob.es/Splayas/ciudadano/ciudadanoDownloadAction.do?tipoEntidad=4&tipo=1&codigoEntidad=16929", "nombre": "RIO CINCA PUÉRTOLAS" }, "geometry": { "type": "Point", "coordinates": [ 0.147600000317734, 42.528000000434005 ] } },
{ "type": "Feature", "properties": { "fid": 27.0, "localId": "ES241C9012629", "link": "https://nayadeciudadano.sanidad.gob.es/Splayas/ciudadano/ciudadanoDownloadAction.do?tipoEntidad=4&tipo=1&codigoEntidad=16664", "nombre": "RIO ARAGON SUBORDAN VALLE DE HECHO" }, "geometry": { "type": "Point", "coordinates": [ -0.717999999901329, 42.628699999618284 ] } },
{ "type": "Feature", "properties": { "fid": 26.0, "localId": "ES241C9012630", "link": "https://nayadeciudadano.sanidad.gob.es/Splayas/ciudadano/ciudadanoDownloadAction.do?tipoEntidad=4&tipo=1&codigoEntidad=16665", "nombre": "BARRANCO RIO ARAGON SUBORDAN VALLE DE HECHO" }, "geometry": { "type": "Point", "coordinates": [ -0.740000000532745, 42.695200000371649 ] } },
{ "type": "Feature", "properties": { "fid": 28.0, "localId": "ES241C9011970", "link": "https://nayadeciudadano.sanidad.gob.es/Splayas/ciudadano/ciudadanoDownloadAction.do?tipoEntidad=4&tipo=1&codigoEntidad=17458", "nombre": "RIO SUBORDAN VALLE DE HECHO" }, "geometry": { "type": "Point", "coordinates": [ -0.748599999529596, 42.738399999921654 ] } }
]
}
