{
"type": "FeatureCollection",
"name": "refugios",
"crs": { "type": "name", "properties": { "name": "urn:ogc:def:crs:OGC:1.3:CRS84" } },
"features": [
{ "type": "Feature", "properties": { "fid": 1, "nombre": "refuge de l'abérouat", "id": 1 }, "geometry": { "type": "Point", "coordinates": [ -0.666130290043647, 42.950278775725067, 0.0 ] } },
{ "type": "Feature", "properties": { "fid": 2, "nombre": "refuge d'arrioutort", "id": 2 }, "geometry": { "type": "Point", "coordinates": [ -0.472004676770562, 42.975049937043963, 0.0 ] } },
{ "type": "Feature", "properties": { "fid": 3, "nombre": "cabane d'arrioutort", "id": 3 }, "geometry": { "type": "Point", "coordinates": [ -0.472004676770562, 42.975049937043963, 0.0 ] } },
{ "type": "Feature", "properties": { "fid": 4, "nombre": "refuge de pombie", "id": 4 }, "geometry": { "type": "Point", "coordinates": [ -0.42694110813756, 42.835538664298916, 0.0 ] } },
{ "type": "Feature", "properties": { "fid": 5, "nombre": "refuge jeandel", "id": 5 }, "geometry": { "type": "Point", "coordinates": [ -0.7492713495079, 42.978282089092929, 0.0 ] } },
{ "type": "Feature", "properties": { "fid": 6, "nombre": "refuge de larry", "id": 6 }, "geometry": { "type": "Point", "coordinates": [ -0.517273826278014, 42.851789398038861, 0.0 ] } },
{ "type": "Feature", "properties": { "fid": 7, "nombre": "refuge d'ayous", "id": 7 }, "geometry": { "type": "Point", "coordinates": [ -0.491143484173637, 42.848402763935191, 0.0 ] } },
{ "type": "Feature", "properties": { "fid": 8, "nombre": "refuge d'arrémoulit", "id": 8 }, "geometry": { "type": "Point", "coordinates": [ -0.329137262696656, 42.846019769606805, 0.0 ] } },
{ "type": "Feature", "properties": { "fid": 9, "nombre": "cabane de lapachouaou", "id": 9 }, "geometry": { "type": "Point", "coordinates": [ -0.57888096210809, 42.833503731605482, 0.0 ] } },
{ "type": "Feature", "properties": { "fid": 10, "nombre": "refuge d'arlet", "id": 10 }, "geometry": { "type": "Point", "coordinates": [ -0.615676839236166, 42.840648125186256, 0.0 ] } },
{ "type": "Feature", "properties": { "fid": 11, "nombre": "cabane caillabère", "id": 11 }, "geometry": { "type": "Point", "coordinates": [ -0.592459259625677, 42.825360488583534, 0.0 ] } },
{ "type": "Feature", "properties": { "fid": 12, "nombre": "refuge de larribet", "id": 12 }, "geometry": { "type": "Point", "coordinates": [ -0.288835979352588, 42.858202374284083, 0.0 ] } },
{ "type": "Feature", "properties": { "fid": 13, "nombre": "refuge des oulettes de gaube", "id": 13 }, "geometry": { "type": "Point", "coordinates": [ -0.141424563804553, 42.792921610523337, 0.0 ] } },
{ "type": "Feature", "properties": { "fid": 14, "nombre": "refuge des espuguettes", "id": 14 }, "geometry": { "type": "Point", "coordinates": [ 0.012243041789596, 42.719889529904677, 0.0 ] } },
{ "type": "Feature", "properties": { "fid": 15, "nombre": "chalet-refuge de pailha", "id": 15 }, "geometry": { "type": "Point", "coordinates": [ 0.000506595930785, 42.719601775063673, 0.0 ] } },
{ "type": "Feature", "properties": { "fid": 16, "nombre": "challet de pailla", "id": 16 }, "geometry": { "type": "Point", "coordinates": [ 0.000506595930785, 42.719601775063673, 0.0 ] } },
{ "type": "Feature", "properties": { "fid": 17, "nombre": "les granges de holle", "id": 17 }, "geometry": { "type": "Point", "coordinates": [ -0.022572604555175, 42.739412301730319, 0.0 ] } },
{ "type": "Feature", "properties": { "fid": 18, "nombre": "chalet refuge grange de holle", "id": 18 }, "geometry": { "type": "Point", "coordinates": [ -0.022572604555175, 42.739412301730319, 0.0 ] } },
{ "type": "Feature", "properties": { "fid": 19, "nombre": "hospice de rioumajou", "id": 19 }, "geometry": { "type": "Point", "coordinates": [ 0.293940611348752, 42.708057631646845, 0.0 ] } },
{ "type": "Feature", "properties": { "fid": 20, "nombre": "refuge de tuquerouye", "id": 20 }, "geometry": { "type": "Point", "coordinates": [ 0.040184542859907, 42.697676969144233, 0.0 ] } },
{ "type": "Feature", "properties": { "fid": 21, "nombre": "refuge des sarradets ou de la brèche de roland", "id": 21 }, "geometry": { "type": "Point", "coordinates": [ -0.033278095666092, 42.695915613594615, 0.0 ] } },
{ "type": "Feature", "properties": { "fid": 22, "nombre": "sarradets", "id": 22 }, "geometry": { "type": "Point", "coordinates": [ -0.033278095666092, 42.695915613594615, 0.0 ] } },
{ "type": "Feature", "properties": { "fid": 23, "nombre": "chalet-refuge de l'oule", "id": 23 }, "geometry": { "type": "Point", "coordinates": [ 0.20747333893648, 42.824399984613493, 0.0 ] } },
{ "type": "Feature", "properties": { "fid": 24, "nombre": "refuge de l'oule", "id": 24 }, "geometry": { "type": "Point", "coordinates": [ 0.20747333893648, 42.824399984613493, 0.0 ] } },
{ "type": "Feature", "properties": { "fid": 25, "nombre": "refuge d'ilhéou", "id": 25 }, "geometry": { "type": "Point", "coordinates": [ -0.173496217889688, 42.866198817001816, 0.0 ] } },
{ "type": "Feature", "properties": { "fid": 26, "nombre": "refuge d'orédon", "id": 26 }, "geometry": { "type": "Point", "coordinates": [ 0.168296509015363, 42.82639399885273, 0.0 ] } },
{ "type": "Feature", "properties": { "fid": 27, "nombre": "chalet refuge du clot", "id": 27 }, "geometry": { "type": "Point", "coordinates": [ -0.147232412098998, 42.851948722604455, 0.0 ] } },
{ "type": "Feature", "properties": { "fid": 28, "nombre": "refuge packe", "id": 28 }, "geometry": { "type": "Point", "coordinates": [ 0.083677609469856, 42.832793460815743, 0.0 ] } },
{ "type": "Feature", "properties": { "fid": 29, "nombre": "cabane d'aygues cluses", "id": 29 }, "geometry": { "type": "Point", "coordinates": [ 0.150096078475571, 42.875710158459952, 0.0 ] } },
{ "type": "Feature", "properties": { "fid": 30, "nombre": "refuge d'aygues cluses", "id": 30 }, "geometry": { "type": "Point", "coordinates": [ 0.150096078475571, 42.875710158459952, 0.0 ] } },
{ "type": "Feature", "properties": { "fid": 31, "nombre": "refuge d'aygues-cluses", "id": 31 }, "geometry": { "type": "Point", "coordinates": [ 0.150096078475571, 42.875710158459952, 0.0 ] } },
{ "type": "Feature", "properties": { "fid": 32, "nombre": "refuge bayssellance", "id": 32 }, "geometry": { "type": "Point", "coordinates": [ -0.124138351624349, 42.779401910701779, 0.0 ] } },
{ "type": "Feature", "properties": { "fid": 33, "nombre": "refuge de migouélou", "id": 33 }, "geometry": { "type": "Point", "coordinates": [ -0.298986024896277, 42.885726800589161, 0.0 ] } },
{ "type": "Feature", "properties": { "fid": 34, "nombre": "refuge de la glère", "id": 34 }, "geometry": { "type": "Point", "coordinates": [ 0.090542644911062, 42.860904499934769, 0.0 ] } },
{ "type": "Feature", "properties": { "fid": 35, "nombre": "refuge russell", "id": 35 }, "geometry": { "type": "Point", "coordinates": [ -0.086309513358829, 42.825501961873229, 0.0 ] } },
{ "type": "Feature", "properties": { "fid": 36, "nombre": "refuge wallon-marcadau", "id": 36 }, "geometry": { "type": "Point", "coordinates": [ -0.19472119398161, 42.820089116078442, 0.0 ] } },
{ "type": "Feature", "properties": { "fid": 37, "nombre": "refuge d'estom", "id": 37 }, "geometry": { "type": "Point", "coordinates": [ -0.099052022360526, 42.807942873227276, 0.0 ] } },
{ "type": "Feature", "properties": { "fid": 38, "nombre": "refuge de bastan", "id": 38 }, "geometry": { "type": "Point", "coordinates": [ 0.209728476762941, 42.853236769412561, 0.0 ] } },
{ "type": "Feature", "properties": { "fid": 39, "nombre": "refuge ledormeur ou du balaïtous", "id": 39 }, "geometry": { "type": "Point", "coordinates": [ -0.264511884015133, 42.855554177242283, 0.0 ] } },
{ "type": "Feature", "properties": { "fid": 40, "nombre": "refuge le dormeur ou balaïtous", "id": 40 }, "geometry": { "type": "Point", "coordinates": [ -0.264511884015133, 42.855554177242283, 0.0 ] } },
{ "type": "Feature", "properties": { "fid": 41, "nombre": "refuge de campana de cloutou", "id": 41 }, "geometry": { "type": "Point", "coordinates": [ 0.205346506534384, 42.881606445132249, 0.0 ] } },
{ "type": "Feature", "properties": { "fid": 42, "nombre": "refuge de la soula", "id": 42 }, "geometry": { "type": "Point", "coordinates": [ 0.41993226869578, 42.72266619004624, 0.0 ] } },
{ "type": "Feature", "properties": { "fid": 43, "nombre": "refuge hôtel d'orédon", "id": 43 }, "geometry": { "type": "Point", "coordinates": [ 0.169260258325201, 42.826234539386469, 0.0 ] } },
{ "type": "Feature", "properties": { "fid": 44, "nombre": "chalet hôtel d'orédon", "id": 44 }, "geometry": { "type": "Point", "coordinates": [ 0.169260258325201, 42.826234539386469, 0.0 ] } },
{ "type": "Feature", "properties": { "fid": 45, "nombre": "refuge de saubette", "id": 45 }, "geometry": { "type": "Point", "coordinates": [ 0.497914862211085, 42.895491932928252, 0.0 ] } },
{ "type": "Feature", "properties": { "fid": 46, "nombre": "cabane de saoubette", "id": 46 }, "geometry": { "type": "Point", "coordinates": [ 0.497914862211085, 42.895491932928252, 0.0 ] } },
{ "type": "Feature", "properties": { "fid": 47, "nombre": "refuge de saoubette", "id": 47 }, "geometry": { "type": "Point", "coordinates": [ 0.497914862211085, 42.895491932928252, 0.0 ] } },
{ "type": "Feature", "properties": { "fid": 48, "nombre": "Refugio de Respomuso", "id": 48 }, "geometry": { "type": "Point", "coordinates": [ -0.287597295480355, 42.81696585628675, 2143.846666666666806 ] } },
{ "type": "Feature", "properties": { "fid": 49, "nombre": "Cabaña Cantal", "id": 49 }, "geometry": { "type": "Point", "coordinates": [ -0.23587425099535, 42.705554721344697, -99999.0 ] } },
{ "type": "Feature", "properties": { "fid": 50, "nombre": "Refugio Añes Cruces", "id": 50 }, "geometry": { "type": "Point", "coordinates": [ 0.408658860687147, 42.680029585926704, 2104.675000000000182 ] } },
{ "type": "Feature", "properties": { "fid": 51, "nombre": "Abrigo Michaud#Cueva Michaud#Refugio Michaud", "id": 51 }, "geometry": { "type": "Point", "coordinates": [ -0.296965776367477, 42.837636751615001, 2698.449999999999818 ] } },
{ "type": "Feature", "properties": { "fid": 52, "nombre": "Refugio de Otal", "id": 52 }, "geometry": { "type": "Point", "coordinates": [ -0.152173332452635, 42.6913385868815, 1625.575000000000273 ] } },
{ "type": "Feature", "properties": { "fid": 53, "nombre": "Refugio de la Estiva", "id": 53 }, "geometry": { "type": "Point", "coordinates": [ 0.106691175596546, 42.683564250427899, 2103.691601835752408 ] } },
{ "type": "Feature", "properties": { "fid": 54, "nombre": "Refugio de Barrosa", "id": 54 }, "geometry": { "type": "Point", "coordinates": [ 0.157059779960689, 42.704440564375545, 1742.425 ] } },
{ "type": "Feature", "properties": { "fid": 55, "nombre": "Refugio Montarruego", "id": 55 }, "geometry": { "type": "Point", "coordinates": [ 0.160627540515315, 42.682112726461455, 2240.274999999999636 ] } },
{ "type": "Feature", "properties": { "fid": 56, "nombre": "Refugio de Los Barbietos", "id": 56 }, "geometry": { "type": "Point", "coordinates": [ 0.145291484504627, 42.68362135063915, 2065.675000000000182 ] } },
{ "type": "Feature", "properties": { "fid": 57, "nombre": "Refugio de Pescadores", "id": 57 }, "geometry": { "type": "Point", "coordinates": [ -0.12354959027703, 42.675727602982199, 1225.925000000000182 ] } },
{ "type": "Feature", "properties": { "fid": 58, "nombre": "Refugio de Facha Guasa", "id": 58 }, "geometry": { "type": "Point", "coordinates": [ -0.112302254299556, 42.679297233915648, 1579.0 ] } },
{ "type": "Feature", "properties": { "fid": 59, "nombre": "Refugio Alfonso XIII", "id": 59 }, "geometry": { "type": "Point", "coordinates": [ -0.283713680515622, 42.813248397555896, 2149.199999999999818 ] } },
{ "type": "Feature", "properties": { "fid": 60, "nombre": "Refugio Ordiso", "id": 60 }, "geometry": { "type": "Point", "coordinates": [ -0.137000173431667, 42.721736243906498, 1585.524999999999864 ] } },
{ "type": "Feature", "properties": { "fid": 61, "nombre": "Cabaña de Culrueba", "id": 61 }, "geometry": { "type": "Point", "coordinates": [ 0.356995804283298, 42.679914213737113, 1790.225 ] } },
{ "type": "Feature", "properties": { "fid": 62, "nombre": "Refugio Cebillonar", "id": 62 }, "geometry": { "type": "Point", "coordinates": [ -0.152632131800046, 42.7485981252348, 1795.100000000000136 ] } },
{ "type": "Feature", "properties": { "fid": 63, "nombre": "Refugio de Bujaruelo", "id": 63 }, "geometry": { "type": "Point", "coordinates": [ -0.106990686435881, 42.694532519851499, 1334.73 ] } },
{ "type": "Feature", "properties": { "fid": 64, "nombre": "Refugio Plana de Sandaruelo", "id": 64 }, "geometry": { "type": "Point", "coordinates": [ -0.097331412929588, 42.703230009531751, 1679.425 ] } },
{ "type": "Feature", "properties": { "fid": 65, "nombre": "Refugio Casa de Piedra", "id": 65 }, "geometry": { "type": "Point", "coordinates": [ -0.233531931186168, 42.762654823551898, 1640.064285714285461 ] } },
{ "type": "Feature", "properties": { "fid": 66, "nombre": "Refugio de Sabocos", "id": 66 }, "geometry": { "type": "Point", "coordinates": [ -0.257092639676834, 42.695040892045398, 1892.875 ] } },
{ "type": "Feature", "properties": { "fid": 67, "nombre": "Refugio de Yenefrito", "id": 67 }, "geometry": { "type": "Point", "coordinates": [ -0.217966121497448, 42.716732975714905, -99999.0 ] } },
{ "type": "Feature", "properties": { "fid": 68, "nombre": "Refugio Brazato", "id": 68 }, "geometry": { "type": "Point", "coordinates": [ -0.21174697450236, 42.7515038797522, -99999.0 ] } },
{ "type": "Feature", "properties": { "fid": 69, "nombre": "Refugio Bachimaña Alto", "id": 69 }, "geometry": { "type": "Point", "coordinates": [ -0.221131068688472, 42.789049257278293, 0.0 ] } },
{ "type": "Feature", "properties": { "fid": 70, "nombre": "Refugio de Tucarroya", "id": 70 }, "geometry": { "type": "Point", "coordinates": [ 0.040186833497443, 42.69766007533741, 2664.925000000000182 ] } },
{ "type": "Feature", "properties": { "fid": 71, "nombre": "Cabaña de Ordiso", "id": 71 }, "geometry": { "type": "Point", "coordinates": [ -0.159617605387803, 42.716358076614448, 1818.75 ] } },
{ "type": "Feature", "properties": { "fid": 72, "nombre": "Refugio de Bramatuero", "id": 72 }, "geometry": { "type": "Point", "coordinates": [ -0.196760964248102, 42.787961028322449, 2513.0 ] } },
{ "type": "Feature", "properties": { "fid": 73, "nombre": "Refugio del Verde", "id": 73 }, "geometry": { "type": "Point", "coordinates": [ -0.231066960714445, 42.688057124698304, 1915.325 ] } },
{ "type": "Feature", "properties": { "fid": 74, "nombre": "Refugio de Bachimaña", "id": 74 }, "geometry": { "type": "Point", "coordinates": [ -0.227570187446146, 42.7799727239126, 2191.0 ] } },
{ "type": "Feature", "properties": { "fid": 75, "nombre": "Refugio La Ripera 2", "id": 75 }, "geometry": { "type": "Point", "coordinates": [ -0.254962763653961, 42.719650332132304, 1444.15 ] } },
{ "type": "Feature", "properties": { "fid": 76, "nombre": "Refugio de la Ripera", "id": 76 }, "geometry": { "type": "Point", "coordinates": [ -0.234005016753984, 42.714942318739602, 1554.25 ] } },
{ "type": "Feature", "properties": { "fid": 77, "nombre": "Refugio de la Larri", "id": 77 }, "geometry": { "type": "Point", "coordinates": [ 0.084754977901424, 42.686397141953051, 1583.025 ] } },
{ "type": "Feature", "properties": { "fid": 78, "nombre": "Refugio La Ripera 1", "id": 78 }, "geometry": { "type": "Point", "coordinates": [ -0.235145961464446, 42.711766635283936, 1531.075 ] } },
{ "type": "Feature", "properties": { "fid": 79, "nombre": "Refugio La Escusaneta", "id": 79 }, "geometry": { "type": "Point", "coordinates": [ -0.096894280778916, 42.696501481721654, 1879.2 ] } },
{ "type": "Feature", "properties": { "fid": 80, "nombre": "Refugio de Estós", "id": 80 }, "geometry": { "type": "Point", "coordinates": [ 0.485255764966927, 42.675512220314829, 1892.175 ] } },
{ "type": "Feature", "properties": { "fid": 81, "nombre": "Refugio de Trigoniero", "id": 81 }, "geometry": { "type": "Point", "coordinates": [ 0.245164641609679, 42.703695788120953, 1962.25 ] } },
{ "type": "Feature", "properties": { "fid": 82, "nombre": "Refugio Plan de Están", "id": 82 }, "geometry": { "type": "Point", "coordinates": [ 0.643413702821014, 42.680649006711477, 1858.8 ] } },
{ "type": "Feature", "properties": { "fid": 83, "nombre": "Refugio de los Forestales", "id": 83 }, "geometry": { "type": "Point", "coordinates": [ -0.616865760042722, 42.783261172884401, 1970.075 ] } },
{ "type": "Feature", "properties": { "fid": 84, "nombre": "Refugio Forestal de Zuriza", "id": 84 }, "geometry": { "type": "Point", "coordinates": [ -0.820059735938551, 42.863433602296396, 1210.975 ] } },
{ "type": "Feature", "properties": { "fid": 85, "nombre": "Refugio de Linza", "id": 85 }, "geometry": { "type": "Point", "coordinates": [ -0.799472242255879, 42.898254270357199, 1345.889999999999873 ] } },
{ "type": "Feature", "properties": { "fid": 86, "nombre": "Refugio Selva de Oza", "id": 86 }, "geometry": { "type": "Point", "coordinates": [ -0.711681735489618, 42.831840970370394, 1124.824999999999818 ] } },
{ "type": "Feature", "properties": { "fid": 87, "nombre": "Refugio de Tacheras", "id": 87 }, "geometry": { "type": "Point", "coordinates": [ -0.779209674812258, 42.855384051610152, 1420.024999999999864 ] } },
{ "type": "Feature", "properties": { "fid": 88, "nombre": "Refugio Piedra San Martín", "id": 88 }, "geometry": { "type": "Point", "coordinates": [ -0.767617225577124, 42.968556349660147, 1768.25 ] } },
{ "type": "Feature", "properties": { "fid": 89, "nombre": "Refugio de Canal Roya", "id": 89 }, "geometry": { "type": "Point", "coordinates": [ -0.482267378778223, 42.78965222085025, 1564.275 ] } },
{ "type": "Feature", "properties": { "fid": 90, "nombre": "Refugio del Sobrante de Linza", "id": 90 }, "geometry": { "type": "Point", "coordinates": [ -0.793629286474914, 42.902941108862706, 1455.025 ] } },
{ "type": "Feature", "properties": { "fid": 91, "nombre": "Refugio del Foratón", "id": 91 }, "geometry": { "type": "Point", "coordinates": [ -0.66026431798264, 42.77984474624315, 1862.225 ] } },
{ "type": "Feature", "properties": { "fid": 92, "nombre": "Refugio de Chipeta Alto", "id": 92 }, "geometry": { "type": "Point", "coordinates": [ -0.747333765735812, 42.858112954497599, 1768.550000000000182 ] } },
{ "type": "Feature", "properties": { "fid": 93, "nombre": "Refugio Reclusa", "id": 93 }, "geometry": { "type": "Point", "coordinates": [ -0.772904519356984, 42.802882707591152, 1201.1 ] } },
{ "type": "Feature", "properties": { "fid": 94, "nombre": "Refugio de Dios te Salve", "id": 94 }, "geometry": { "type": "Point", "coordinates": [ -0.676890349874163, 42.781808673419647, 1733.475 ] } },
{ "type": "Feature", "properties": { "fid": 95, "nombre": "Refugio de Plana de Diego", "id": 95 }, "geometry": { "type": "Point", "coordinates": [ -0.773311300758847, 42.882685635968301, 1640.35 ] } },
{ "type": "Feature", "properties": { "fid": 96, "nombre": "Refugio Forestal Acher", "id": 96 }, "geometry": { "type": "Point", "coordinates": [ -0.687803464544311, 42.8165144421951, 1740.199999999999818 ] } },
{ "type": "Feature", "properties": { "fid": 97, "nombre": "Refugio de la Faja Catalán", "id": 97 }, "geometry": { "type": "Point", "coordinates": [ -0.763054032848558, 42.859796685060246, 1632.375 ] } },
{ "type": "Feature", "properties": { "fid": 98, "nombre": "Refugio de Saburcal", "id": 98 }, "geometry": { "type": "Point", "coordinates": [ -0.704879824891016, 42.859132679601508, 1426.574999999999818 ] } },
{ "type": "Feature", "properties": { "fid": 99, "nombre": "Refugio de Secús", "id": 99 }, "geometry": { "type": "Point", "coordinates": [ -0.659394022406494, 42.795082848494403, 1858.525 ] } },
{ "type": "Feature", "properties": { "fid": 100, "nombre": "Refugio de Ezcaurre", "id": 100 }, "geometry": { "type": "Point", "coordinates": [ -0.844579724632659, 42.845975749918097, 1576.175 ] } },
{ "type": "Feature", "properties": { "fid": 101, "nombre": "Refugio de Taxeras", "id": 101 }, "geometry": { "type": "Point", "coordinates": [ -0.662584183256128, 42.787287783969248, 1782.0 ] } },
{ "type": "Feature", "properties": { "fid": 102, "nombre": "Refugio de Tortiella", "id": 102 }, "geometry": { "type": "Point", "coordinates": [ -0.74407408024822, 42.842245135695201, 1854.649999999999864 ] } },
{ "type": "Feature", "properties": { "fid": 103, "nombre": "Refugio de Mazandú", "id": 103 }, "geometry": { "type": "Point", "coordinates": [ -0.773290342869723, 42.846386163584455, 1538.675000000000182 ] } },
{ "type": "Feature", "properties": { "fid": 104, "nombre": "Refugio del Campanil", "id": 104 }, "geometry": { "type": "Point", "coordinates": [ -0.67142945984918, 42.839178257983946, 1682.725 ] } },
{ "type": "Feature", "properties": { "fid": 105, "nombre": "Refugio de Aguas Tuertas", "id": 105 }, "geometry": { "type": "Point", "coordinates": [ -0.628539411046237, 42.830960754801595, 1617.725000000000136 ] } },
{ "type": "Feature", "properties": { "fid": 106, "nombre": "Refugio Puente de Sil", "id": 106 }, "geometry": { "type": "Point", "coordinates": [ -0.711654140730803, 42.812798924026254, 1070.550000000000182 ] } },
{ "type": "Feature", "properties": { "fid": 107, "nombre": "Refugio de Zuriza", "id": 107 }, "geometry": { "type": "Point", "coordinates": [ -0.814125782084874, 42.865664824440984, 1209.175000000000182 ] } },
{ "type": "Feature", "properties": { "fid": 108, "nombre": "Refugio Paquiza Frontaza", "id": 108 }, "geometry": { "type": "Point", "coordinates": [ -0.619986131980985, 42.809448133014804, 1657.824999999999818 ] } },
{ "type": "Feature", "properties": { "fid": 109, "nombre": "Refugio de la Mina", "id": 109 }, "geometry": { "type": "Point", "coordinates": [ -0.685218482197387, 42.85512768401555, 1281.6 ] } },
{ "type": "Feature", "properties": { "fid": 110, "nombre": "Refugio Pepe Garcés", "id": 110 }, "geometry": { "type": "Point", "coordinates": [ -0.531792182716596, 42.7873838718644, 1544.865714285713921 ] } },
{ "type": "Feature", "properties": { "fid": 111, "nombre": "Refugio de Gabardito", "id": 111 }, "geometry": { "type": "Point", "coordinates": [ -0.711654354657561, 42.787383877093802, 1372.975 ] } },
{ "type": "Feature", "properties": { "fid": 112, "nombre": "Cabaña Bosque de Linza", "id": 112 }, "geometry": { "type": "Point", "coordinates": [ -0.796976653899488, 42.897071749946946, 1341.0 ] } },
{ "type": "Feature", "properties": { "fid": 113, "nombre": "Refugio de Petrechema", "id": 113 }, "geometry": { "type": "Point", "coordinates": [ -0.776312736266853, 42.897361202909899, -99999.0 ] } },
{ "type": "Feature", "properties": { "fid": 114, "nombre": "Refugio La Glera de Anayet", "id": 114 }, "geometry": { "type": "Point", "coordinates": [ -0.425800289684553, 42.781438080118605, -99999.0 ] } },
{ "type": "Feature", "properties": { "fid": 115, "nombre": "Refugio La Foya", "id": 115 }, "geometry": { "type": "Point", "coordinates": [ -0.695498664755783, 42.86372711182765, 1430.5 ] } },
{ "type": "Feature", "properties": { "fid": 116, "nombre": "Refugio de Choza Fimia", "id": 116 }, "geometry": { "type": "Point", "coordinates": [ -0.779016781428711, 42.815264898797302, 1356.25 ] } },
{ "type": "Feature", "properties": { "fid": 117, "nombre": "Refugio La Cantina", "id": 117 }, "geometry": { "type": "Point", "coordinates": [ -0.688248240688339, 42.853680171311197, 1256.949999999999818 ] } },
{ "type": "Feature", "properties": { "fid": 118, "nombre": "Cabaña de las Menorías", "id": 118 }, "geometry": { "type": "Point", "coordinates": [ -0.494060686040771, 42.767347677335849, 1710.575 ] } },
{ "type": "Feature", "properties": { "fid": 119, "nombre": "Refugio Calcilarruego", "id": 119 }, "geometry": { "type": "Point", "coordinates": [ -0.054214705414898, 42.641264054820354, -99999.0 ] } },
{ "type": "Feature", "properties": { "fid": 120, "nombre": "Cabana de Santa Ana", "id": 120 }, "geometry": { "type": "Point", "coordinates": [ 0.535287789529093, 42.6446738623386, 1494.5 ] } },
{ "type": "Feature", "properties": { "fid": 121, "nombre": "Cabana de la Coma", "id": 121 }, "geometry": { "type": "Point", "coordinates": [ 0.524788340077525, 42.660249794866203, 1819.0 ] } },
{ "type": "Feature", "properties": { "fid": 122, "nombre": "Mallata de Anayet", "id": 122 }, "geometry": { "type": "Point", "coordinates": [ -0.463328945232258, 42.764905201720154, 2013.5 ] } },
{ "type": "Feature", "properties": { "fid": 123, "nombre": "Mallata del Buxicar", "id": 123 }, "geometry": { "type": "Point", "coordinates": [ -0.361315162111466, 42.71643777139905, 1598.0 ] } },
{ "type": "Feature", "properties": { "fid": 124, "nombre": "Refugio de Benito Coll", "id": 124 }, "geometry": { "type": "Point", "coordinates": [ 0.259637570433863, 41.843918802935946, 399.2 ] } },
{ "type": "Feature", "properties": { "fid": 125, "nombre": "Refugio de Iserías#Refugio de Izas", "id": 125 }, "geometry": { "type": "Point", "coordinates": [ -0.467332419264024, 42.756849837183047, 1703.75 ] } },
{ "type": "Feature", "properties": { "fid": 126, "nombre": "Refugio de Vadiello#Refugio de Peña Guara", "id": 126 }, "geometry": { "type": "Point", "coordinates": [ -0.281633568325275, 42.235094215973476, 729.333333333333371 ] } },
{ "type": "Feature", "properties": { "fid": 127, "nombre": "Refugio de Pescadores", "id": 127 }, "geometry": { "type": "Point", "coordinates": [ 0.577647024744192, 42.657257428065151, 1470.975 ] } },
{ "type": "Feature", "properties": { "fid": 128, "nombre": "Refugio de Marradetas", "id": 128 }, "geometry": { "type": "Point", "coordinates": [ 0.392106821641911, 42.567855141314396, 2016.774999999999864 ] } },
{ "type": "Feature", "properties": { "fid": 129, "nombre": "Refugio Forestal", "id": 129 }, "geometry": { "type": "Point", "coordinates": [ 0.498001406985256, 42.348864027202751, 1551.25 ] } },
{ "type": "Feature", "properties": { "fid": 130, "nombre": "Refugio La Cabaña", "id": 130 }, "geometry": { "type": "Point", "coordinates": [ -0.638818545830417, 42.542239346849698, 748.25 ] } },
{ "type": "Feature", "properties": { "fid": 131, "nombre": "Refugio de Santa María", "id": 131 }, "geometry": { "type": "Point", "coordinates": [ 0.164827916969846, 42.568719437939251, 1081.725000000000136 ] } },
{ "type": "Feature", "properties": { "fid": 132, "nombre": "Refugio Ángel Orús", "id": 132 }, "geometry": { "type": "Point", "coordinates": [ 0.45741348417677, 42.627441159577899, 2110.98 ] } },
{ "type": "Feature", "properties": { "fid": 133, "nombre": "Refugio del Monte de la Cuta", "id": 133 }, "geometry": { "type": "Point", "coordinates": [ -0.70320392875669, 42.775808476155348, 1830.3 ] } },
{ "type": "Feature", "properties": { "fid": 134, "nombre": "Refugio de Pescadores", "id": 134 }, "geometry": { "type": "Point", "coordinates": [ 0.204566069957945, 42.573093465475601, 739.275 ] } },
{ "type": "Feature", "properties": { "fid": 135, "nombre": "Refugio Santa Orosia", "id": 135 }, "geometry": { "type": "Point", "coordinates": [ -0.275565573314304, 42.517651164151886, 1555.775 ] } },
{ "type": "Feature", "properties": { "fid": 136, "nombre": "Refugio de Pescadores", "id": 136 }, "geometry": { "type": "Point", "coordinates": [ -0.806604730870476, 42.719660928837698, 762.8 ] } },
{ "type": "Feature", "properties": { "fid": 137, "nombre": "Refugio Mirador de Oroel", "id": 137 }, "geometry": { "type": "Point", "coordinates": [ -0.53195328623899, 42.5279744806191, 1183.757142857142981 ] } },
{ "type": "Feature", "properties": { "fid": 138, "nombre": "Refugio El Pajar", "id": 138 }, "geometry": { "type": "Point", "coordinates": [ -0.305284539504779, 42.198382340390694, 697.475 ] } },
{ "type": "Feature", "properties": { "fid": 139, "nombre": "Refugio Ostacho", "id": 139 }, "geometry": { "type": "Point", "coordinates": [ 0.23229991065431, 42.482035069472502, 1380.675000000000182 ] } },
{ "type": "Feature", "properties": { "fid": 140, "nombre": "Refugio de los Estrechos", "id": 140 }, "geometry": { "type": "Point", "coordinates": [ -0.926323932234574, 42.399584645846403, 823.249999999999886 ] } },
{ "type": "Feature", "properties": { "fid": 141, "nombre": "Refugio Salafuentes", "id": 141 }, "geometry": { "type": "Point", "coordinates": [ -0.891082075221439, 42.46859349046413, 993.125 ] } },
{ "type": "Feature", "properties": { "fid": 142, "nombre": "Refugio de Fardollás", "id": 142 }, "geometry": { "type": "Point", "coordinates": [ -0.902613477530336, 42.425577596058503, 1231.325 ] } },
{ "type": "Feature", "properties": { "fid": 143, "nombre": "Refugio de Chinestral", "id": 143 }, "geometry": { "type": "Point", "coordinates": [ 0.5306847141785, 42.548884373007596, 1898.75 ] } },
{ "type": "Feature", "properties": { "fid": 144, "nombre": "Refugio de Patrón", "id": 144 }, "geometry": { "type": "Point", "coordinates": [ -0.039129712029747, 42.5741147782959, 1094.4 ] } },
{ "type": "Feature", "properties": { "fid": 145, "nombre": "Refugio de Ordaniso", "id": 145 }, "geometry": { "type": "Point", "coordinates": [ -0.71458101958894, 42.417960865728901, 638.55 ] } },
{ "type": "Feature", "properties": { "fid": 146, "nombre": "Refugio Loma de Aisa", "id": 146 }, "geometry": { "type": "Point", "coordinates": [ -0.633802027665107, 42.690323893783898, 1228.25 ] } },
{ "type": "Feature", "properties": { "fid": 147, "nombre": "Refugio de Vallfuró", "id": 147 }, "geometry": { "type": "Point", "coordinates": [ 0.673440960986919, 42.131974643312901, 778.625 ] } },
{ "type": "Feature", "properties": { "fid": 148, "nombre": "Refugio Pardinas", "id": 148 }, "geometry": { "type": "Point", "coordinates": [ 0.291567123064407, 42.63469980967885, 2110.5 ] } },
{ "type": "Feature", "properties": { "fid": 149, "nombre": "Refugio del Turbón", "id": 149 }, "geometry": { "type": "Point", "coordinates": [ 0.489049554411978, 42.41529443486835, 1994.050000000000182 ] } },
{ "type": "Feature", "properties": { "fid": 150, "nombre": "Refugio de los Pequés", "id": 150 }, "geometry": { "type": "Point", "coordinates": [ -0.598492764164995, 42.708705892919802, 1486.925 ] } },
{ "type": "Feature", "properties": { "fid": 151, "nombre": "Refugio Cubilar de la Espata", "id": 151 }, "geometry": { "type": "Point", "coordinates": [ -0.474362255063863, 42.688736237547502, 1691.424999999999727 ] } },
{ "type": "Feature", "properties": { "fid": 152, "nombre": "Refugio Chardal", "id": 152 }, "geometry": { "type": "Point", "coordinates": [ 0.264820148519351, 42.595023024437999, 1845.800000000000182 ] } },
{ "type": "Feature", "properties": { "fid": 153, "nombre": "Refugio Rigüelo", "id": 153 }, "geometry": { "type": "Point", "coordinates": [ -0.576176025894617, 42.745617129902101, 1726.25 ] } },
{ "type": "Feature", "properties": { "fid": 154, "nombre": "Refugio de las Femallas", "id": 154 }, "geometry": { "type": "Point", "coordinates": [ -0.071315848197344, 42.6103094838668, 1598.625 ] } },
{ "type": "Feature", "properties": { "fid": 155, "nombre": "Refugio de Bucharbalo", "id": 155 }, "geometry": { "type": "Point", "coordinates": [ 0.178084255957459, 42.600400554232799, 1751.125 ] } },
{ "type": "Feature", "properties": { "fid": 156, "nombre": "Refugio Resuali", "id": 156 }, "geometry": { "type": "Point", "coordinates": [ 0.445351799927857, 42.506708310205411, 1839.975 ] } },
{ "type": "Feature", "properties": { "fid": 157, "nombre": "Refugio Turmaquera", "id": 157 }, "geometry": { "type": "Point", "coordinates": [ 0.309596015928381, 42.604347163383594, 1826.925000000000182 ] } },
{ "type": "Feature", "properties": { "fid": 158, "nombre": "Refugio Plan de Usabas", "id": 158 }, "geometry": { "type": "Point", "coordinates": [ -0.382648325362513, 42.672601958814298, 1825.75 ] } },
{ "type": "Feature", "properties": { "fid": 159, "nombre": "Refugio del Turmo", "id": 159 }, "geometry": { "type": "Point", "coordinates": [ 0.579596196043368, 42.533653220404446, 2258.800000000000182 ] } },
{ "type": "Feature", "properties": { "fid": 160, "nombre": "Refugio de Lierde", "id": 160 }, "geometry": { "type": "Point", "coordinates": [ -0.542498487742211, 42.689575703572601, 1212.325 ] } },
{ "type": "Feature", "properties": { "fid": 161, "nombre": "Refugio de Lavasar", "id": 161 }, "geometry": { "type": "Point", "coordinates": [ 0.314686446394272, 42.555928506835251, 1921.6 ] } },
{ "type": "Feature", "properties": { "fid": 162, "nombre": "Refugio de la Montañeta", "id": 162 }, "geometry": { "type": "Point", "coordinates": [ 0.533016485397019, 42.5395820127072, 1917.800000000000182 ] } },
{ "type": "Feature", "properties": { "fid": 163, "nombre": "Refugio Militar López Huici", "id": 163 }, "geometry": { "type": "Point", "coordinates": [ -0.559451468952364, 42.744066457816444, 2009.275 ] } },
{ "type": "Feature", "properties": { "fid": 164, "nombre": "Refugio Forestal de Baserca", "id": 164 }, "geometry": { "type": "Point", "coordinates": [ 0.763035365890997, 42.597789485163652, 1455.574999999999818 ] } },
{ "type": "Feature", "properties": { "fid": 165, "nombre": "Refugio de Oldecua", "id": 165 }, "geometry": { "type": "Point", "coordinates": [ -0.629143257287367, 42.771064980808703, 1703.95 ] } },
{ "type": "Feature", "properties": { "fid": 166, "nombre": "Refugio Saleras", "id": 166 }, "geometry": { "type": "Point", "coordinates": [ -0.588049478496975, 42.74101658042585, 1567.3 ] } },
{ "type": "Feature", "properties": { "fid": 167, "nombre": "Refugio del Cap de la Vall", "id": 167 }, "geometry": { "type": "Point", "coordinates": [ 0.697765954012223, 42.612512742399751, 2385.199999999999818 ] } },
{ "type": "Feature", "properties": { "fid": 168, "nombre": "Refugio de Llardana", "id": 168 }, "geometry": { "type": "Point", "coordinates": [ 0.45506760809248, 42.636991199865847, 2311.25 ] } },
{ "type": "Feature", "properties": { "fid": 169, "nombre": "Refugio de la Soma", "id": 169 }, "geometry": { "type": "Point", "coordinates": [ 0.289299130663608, 42.465725327690251, 1730.45 ] } },
{ "type": "Feature", "properties": { "fid": 170, "nombre": "Refugio de San Vicenda", "id": 170 }, "geometry": { "type": "Point", "coordinates": [ 0.057572279556741, 42.618874026118604, 1721.800000000000182 ] } },
{ "type": "Feature", "properties": { "fid": 171, "nombre": "Refugio de Escarra", "id": 171 }, "geometry": { "type": "Point", "coordinates": [ -0.365028239057946, 42.743133759519452, 1650.75 ] } },
{ "type": "Feature", "properties": { "fid": 172, "nombre": "Refugio de Pastores", "id": 172 }, "geometry": { "type": "Point", "coordinates": [ 0.510356429689777, 42.041694418106502, 784.5 ] } },
{ "type": "Feature", "properties": { "fid": 173, "nombre": "Refugio de las Planas", "id": 173 }, "geometry": { "type": "Point", "coordinates": [ 0.082025031549313, 42.589417524548196, 1505.275 ] } },
{ "type": "Feature", "properties": { "fid": 174, "nombre": "Refugio de Fetás", "id": 174 }, "geometry": { "type": "Point", "coordinates": [ -0.644590455011545, 42.776744020636201, 1915.274999999999864 ] } },
{ "type": "Feature", "properties": { "fid": 175, "nombre": "Refugio de la Besaca", "id": 175 }, "geometry": { "type": "Point", "coordinates": [ 0.270175760724843, 42.492800516696086, 1352.5 ] } },
{ "type": "Feature", "properties": { "fid": 176, "nombre": "Refugio de Pastores", "id": 176 }, "geometry": { "type": "Point", "coordinates": [ -0.388412480249717, 42.6464616018282, 1598.45 ] } },
{ "type": "Feature", "properties": { "fid": 177, "nombre": "Refugio de los Neis", "id": 177 }, "geometry": { "type": "Point", "coordinates": [ 0.300642758141265, 42.481547498867243, 1480.65 ] } },
{ "type": "Feature", "properties": { "fid": 178, "nombre": "Refugio de Fuenfría", "id": 178 }, "geometry": { "type": "Point", "coordinates": [ -0.61257003228402, 42.345102192740896, 1289.8 ] } },
{ "type": "Feature", "properties": { "fid": 179, "nombre": "Refugio de Pineta", "id": 179 }, "geometry": { "type": "Point", "coordinates": [ 0.103722892780848, 42.666215476495154, 1242.912500000000136 ] } },
{ "type": "Feature", "properties": { "fid": 180, "nombre": "Refugio Roseta", "id": 180 }, "geometry": { "type": "Point", "coordinates": [ -0.721591161596949, 42.3550451281235, 1026.35 ] } },
{ "type": "Feature", "properties": { "fid": 181, "nombre": "Refugio de Lizara", "id": 181 }, "geometry": { "type": "Point", "coordinates": [ -0.634071713986187, 42.764106435455219, 1521.5 ] } },
{ "type": "Feature", "properties": { "fid": 182, "nombre": "Refugio de Tabernés", "id": 182 }, "geometry": { "type": "Point", "coordinates": [ 0.361028541534213, 42.673877722336201, 1731.55 ] } },
{ "type": "Feature", "properties": { "fid": 183, "nombre": "Refugio Montinier", "id": 183 }, "geometry": { "type": "Point", "coordinates": [ 0.190294807496184, 42.618136574001397, 1652.175000000000182 ] } },
{ "type": "Feature", "properties": { "fid": 184, "nombre": "Refugio de Pastores", "id": 184 }, "geometry": { "type": "Point", "coordinates": [ -0.402975069646751, 42.637253042964005, 1618.55 ] } },
{ "type": "Feature", "properties": { "fid": 185, "nombre": "Refugio del Corral de Curro", "id": 185 }, "geometry": { "type": "Point", "coordinates": [ -0.996810611378507, 42.426050964405, 822.825 ] } },
{ "type": "Feature", "properties": { "fid": 186, "nombre": "Refugio La Pajera", "id": 186 }, "geometry": { "type": "Point", "coordinates": [ -0.528693006916464, 41.853791420155105, 673.95 ] } },
{ "type": "Feature", "properties": { "fid": 187, "nombre": "Refugio del Barranco del Puerto", "id": 187 }, "geometry": { "type": "Point", "coordinates": [ -0.209357753562728, 42.6505087755868, 1599.9 ] } },
{ "type": "Feature", "properties": { "fid": 188, "nombre": "Refugio de Plana Canal", "id": 188 }, "geometry": { "type": "Point", "coordinates": [ 0.07160675600359, 42.600404876423454, 1739.25 ] } },
{ "type": "Feature", "properties": { "fid": 189, "nombre": "Refugio de Armeña", "id": 189 }, "geometry": { "type": "Point", "coordinates": [ 0.347063834475453, 42.524131408279651, 1859.0 ] } },
{ "type": "Feature", "properties": { "fid": 190, "nombre": "Refugio de Soaso", "id": 190 }, "geometry": { "type": "Point", "coordinates": [ 0.007242715651981, 42.642890375799354, 1747.65 ] } },
{ "type": "Feature", "properties": { "fid": 191, "nombre": "Refugio de Santa Isabel", "id": 191 }, "geometry": { "type": "Point", "coordinates": [ 0.252616494022983, 42.536620638958553, 1532.125 ] } },
{ "type": "Feature", "properties": { "fid": 192, "nombre": "Refugio Gavín", "id": 192 }, "geometry": { "type": "Point", "coordinates": [ -0.242719437031311, 42.659556123787553, 1483.875 ] } },
{ "type": "Feature", "properties": { "fid": 193, "nombre": "Refugio Cuello Arenas", "id": 193 }, "geometry": { "type": "Point", "coordinates": [ 0.017898162931656, 42.609308789600803, 1900.15 ] } },
{ "type": "Feature", "properties": { "fid": 194, "nombre": "Refugio de Pescadores", "id": 194 }, "geometry": { "type": "Point", "coordinates": [ -0.738833741903748, 42.76821611894335, 881.183333333333394 ] } },
{ "type": "Feature", "properties": { "fid": 195, "nombre": "Refugio de Iguarra", "id": 195 }, "geometry": { "type": "Point", "coordinates": [ -0.299656806107014, 42.64159849050732, 1322.074999999999818 ] } },
{ "type": "Feature", "properties": { "fid": 196, "nombre": "Cabaña de La Besurta", "id": 196 }, "geometry": { "type": "Point", "coordinates": [ 0.650157458414196, 42.678845941536196, 1897.616666666666788 ] } },
{ "type": "Feature", "properties": { "fid": 197, "nombre": "Refugio de Viadós ", "id": 197 }, "geometry": { "type": "Point", "coordinates": [ 0.377223259477079, 42.660680526242515, 1729.149999999999864 ] } },
{ "type": "Feature", "properties": { "fid": 198, "nombre": "Refugio de la Trapa", "id": 198 }, "geometry": { "type": "Point", "coordinates": [ -0.500019008824016, 42.697356161168202, 1729.600000000000136 ] } },
{ "type": "Feature", "properties": { "fid": 199, "nombre": "Refugio El Jabalí", "id": 199 }, "geometry": { "type": "Point", "coordinates": [ -0.495869237120286, 41.741489399775404, 718.149999999999864 ] } },
{ "type": "Feature", "properties": { "fid": 200, "nombre": "Refugio Casita Blanca", "id": 200 }, "geometry": { "type": "Point", "coordinates": [ -0.509312782983987, 42.7507518199698, -99999.0 ] } },
{ "type": "Feature", "properties": { "fid": 201, "nombre": "Cabana de Millares", "id": 201 }, "geometry": { "type": "Point", "coordinates": [ 0.40972270246149, 42.640383913992551, 2346.0 ] } },
{ "type": "Feature", "properties": { "fid": 202, "nombre": "Refugio de la DGA", "id": 202 }, "geometry": { "type": "Point", "coordinates": [ -0.286814421289927, 42.661445659121711, 1296.5 ] } },
{ "type": "Feature", "properties": { "fid": 203, "nombre": "Refugio Superior", "id": 203 }, "geometry": { "type": "Point", "coordinates": [ -0.208001883606479, 42.661672712181847, 1845.175 ] } },
{ "type": "Feature", "properties": { "fid": 204, "nombre": "Refugios de Caza El Cuervo", "id": 204 }, "geometry": { "type": "Point", "coordinates": [ 0.03809369083723, 41.422241337385699, 326.416666666666686 ] } },
{ "type": "Feature", "properties": { "fid": 205, "nombre": "Refugio de Buenavista", "id": 205 }, "geometry": { "type": "Point", "coordinates": [ -0.496855413082381, 42.743653090525449, 2152.9 ] } },
{ "type": "Feature", "properties": { "fid": 206, "nombre": "Cabana de Molseret", "id": 206 }, "geometry": { "type": "Point", "coordinates": [ 0.503409498575748, 42.673462826633397, 1889.25 ] } },
{ "type": "Feature", "properties": { "fid": 207, "nombre": "Refugio de Urdiceto", "id": 207 }, "geometry": { "type": "Point", "coordinates": [ 0.28236220307986, 42.668223042566531, 2380.25 ] } },
{ "type": "Feature", "properties": { "fid": 208, "nombre": "Refugio de Pescadores", "id": 208 }, "geometry": { "type": "Point", "coordinates": [ -0.815896603843056, 42.570427227613195, 588.4 ] } },
{ "type": "Feature", "properties": { "fid": 209, "nombre": "Refugio de la Renclusa", "id": 209 }, "geometry": { "type": "Point", "coordinates": [ 0.650800345733556, 42.669335812333749, 2140.183333333333394 ] } },
{ "type": "Feature", "properties": { "fid": 210, "nombre": "Refugio Clot de Chil", "id": 210 }, "geometry": { "type": "Point", "coordinates": [ 0.489454169019076, 42.619709383926647, -99999.0 ] } },
{ "type": "Feature", "properties": { "fid": 211, "nombre": "Refugio de Pescadores#Refugio de Coronas", "id": 211 }, "geometry": { "type": "Point", "coordinates": [ 0.62105853211253, 42.610309945422948, 1956.0 ] } },
{ "type": "Feature", "properties": { "fid": 212, "nombre": "Refugio del Trapal", "id": 212 }, "geometry": { "type": "Point", "coordinates": [ -0.495872681016537, 42.70171247248885, 1941.975 ] } },
{ "type": "Feature", "properties": { "fid": 213, "nombre": "Refugio de San Úrbez", "id": 213 }, "geometry": { "type": "Point", "coordinates": [ -0.240090824323644, 42.327422379866448, 1082.975 ] } },
{ "type": "Feature", "properties": { "fid": 214, "nombre": "Refugio de Riglos", "id": 214 }, "geometry": { "type": "Point", "coordinates": [ -0.726983045195591, 42.347014233457585, 625.341463414634177 ] } },
{ "type": "Feature", "properties": { "fid": 215, "nombre": "Refugio de Malla ta Abe", "id": 215 }, "geometry": { "type": "Point", "coordinates": [ -0.033039134859566, 42.633857223688466, 1896.9 ] } },
{ "type": "Feature", "properties": { "fid": 216, "nombre": "Cabana de Ardonés", "id": 216 }, "geometry": { "type": "Point", "coordinates": [ 0.577451060228737, 42.590109855690052, 2065.75 ] } },
{ "type": "Feature", "properties": { "fid": 217, "nombre": "Refugio de la Plana", "id": 217 }, "geometry": { "type": "Point", "coordinates": [ 0.184017982094399, 42.604354540622055, -99999.0 ] } },
{ "type": "Feature", "properties": { "fid": 218, "nombre": "Cabana de Batisielles", "id": 218 }, "geometry": { "type": "Point", "coordinates": [ 0.50995119170736, 42.654360342466603, 1876.550000000000182 ] } },
{ "type": "Feature", "properties": { "fid": 219, "nombre": "Refugio de Barbaricia", "id": 219 }, "geometry": { "type": "Point", "coordinates": [ 0.419512226439505, 42.577552866107354, 1584.824999999999818 ] } },
{ "type": "Feature", "properties": { "fid": 220, "nombre": "Cabana de Sallena", "id": 220 }, "geometry": { "type": "Point", "coordinates": [ 0.325678282030411, 42.660477098380198, 1876.5 ] } },
{ "type": "Feature", "properties": { "fid": 221, "nombre": "Refugio de la Cobeta", "id": 221 }, "geometry": { "type": "Point", "coordinates": [ 0.320160379959501, 42.642737448225702, 1902.855866367107637 ] } },
{ "type": "Feature", "properties": { "fid": 222, "nombre": "Cabaña del Quillón", "id": 222 }, "geometry": { "type": "Point", "coordinates": [ 0.590181357757457, 42.622369994961367, 1795.449999999999818 ] } },
{ "type": "Feature", "properties": { "fid": 223, "nombre": "Refugio de Foratarruego", "id": 223 }, "geometry": { "type": "Point", "coordinates": [ 0.108219577613063, 42.622027365864952, 1952.024999999999864 ] } },
{ "type": "Feature", "properties": { "fid": 224, "nombre": "Refugio Majada de Juan de Freda", "id": 224 }, "geometry": { "type": "Point", "coordinates": [ -0.377961024863884, 42.655944765029652, 1857.199999999999818 ] } },
{ "type": "Feature", "properties": { "fid": 225, "nombre": "Refugio de la Basa", "id": 225 }, "geometry": { "type": "Point", "coordinates": [ 0.397703969985225, 42.6628994266147, 1875.325 ] } },
{ "type": "Feature", "properties": { "fid": 226, "nombre": "Refugio de Puyarueso", "id": 226 }, "geometry": { "type": "Point", "coordinates": [ 0.393226981709546, 42.665524705007954, 1847.85 ] } },
{ "type": "Feature", "properties": { "fid": 227, "nombre": "Refugio Baquerizal", "id": 227 }, "geometry": { "type": "Point", "coordinates": [ 0.454870117937189, 42.6093200323321, 1884.300000000000182 ] } },
{ "type": "Feature", "properties": { "fid": 228, "nombre": "Refugio Cubilar del Barranco Igüer#Refugio del Bozo", "id": 228 }, "geometry": { "type": "Point", "coordinates": [ -0.591200600462069, 42.758387874238302, 1806.800000000000182 ] } },
{ "type": "Feature", "properties": { "fid": 229, "nombre": "Refugio de la Faja#Refugio de Linás", "id": 229 }, "geometry": { "type": "Point", "coordinates": [ -0.179225504694596, 42.657634869369204, 1709.975 ] } },
{ "type": "Feature", "properties": { "fid": 230, "nombre": "Refugio El Clot", "id": 230 }, "geometry": { "type": "Point", "coordinates": [ 0.476709181437827, 42.469609210433703, 1590.05 ] } },
{ "type": "Feature", "properties": { "fid": 231, "nombre": "Refugio Las Pardas", "id": 231 }, "geometry": { "type": "Point", "coordinates": [ 0.374471841419111, 42.607830006167546, 1896.2 ] } },
{ "type": "Feature", "properties": { "fid": 232, "nombre": "Cabana de les Riberetes", "id": 232 }, "geometry": { "type": "Point", "coordinates": [ 0.465848688783274, 42.62483126863215, 1827.25 ] } },
{ "type": "Feature", "properties": { "fid": 233, "nombre": "Refugio del Paso de los Caballos", "id": 233 }, "geometry": { "type": "Point", "coordinates": [ 0.290520625466482, 42.668707484513206, 2315.35 ] } },
{ "type": "Feature", "properties": { "fid": 234, "nombre": "Refugio Los Sarrios", "id": 234 }, "geometry": { "type": "Point", "coordinates": [ -0.268084697793691, 42.642239336055297, 1607.050000000000182 ] } },
{ "type": "Feature", "properties": { "fid": 235, "nombre": "Refugio d'a Fueba", "id": 235 }, "geometry": { "type": "Point", "coordinates": [ -0.244170266902074, 42.663500511047999, 1591.075 ] } },
{ "type": "Feature", "properties": { "fid": 236, "nombre": "Refugio Bargasera", "id": 236 }, "geometry": { "type": "Point", "coordinates": [ 0.302482790150946, 42.618216722614747, 2110.875 ] } },
{ "type": "Feature", "properties": { "fid": 237, "nombre": "Refugio de Hoya Calatuero", "id": 237 }, "geometry": { "type": "Point", "coordinates": [ -0.34678008061206, 42.690030761280653, 1592.199999999999818 ] } },
{ "type": "Feature", "properties": { "fid": 238, "nombre": "Refugio Angliós", "id": 238 }, "geometry": { "type": "Point", "coordinates": [ 0.709366493714057, 42.590193758844705, 2242.25 ] } },
{ "type": "Feature", "properties": { "fid": 239, "nombre": "Refugio Lisier", "id": 239 }, "geometry": { "type": "Point", "coordinates": [ 0.340136469930524, 42.652460889363454, 1723.600000000000136 ] } },
{ "type": "Feature", "properties": { "fid": 240, "nombre": "Refugio de los Carboneros", "id": 240 }, "geometry": { "type": "Point", "coordinates": [ -0.306546549191911, 42.65797004501735, 1063.524999999999864 ] } },
{ "type": "Feature", "properties": { "fid": 241, "nombre": "Refugio Ibón de Ip", "id": 241 }, "geometry": { "type": "Point", "coordinates": [ -0.463315452180603, 42.723769611369804, 2096.324999999999818 ] } },
{ "type": "Feature", "properties": { "fid": 242, "nombre": "Refugio Fenales", "id": 242 }, "geometry": { "type": "Point", "coordinates": [ -0.19887254681363, 42.303729487846553, 1396.575 ] } },
{ "type": "Feature", "properties": { "fid": 243, "nombre": "Cabaña del Sarrau", "id": 243 }, "geometry": { "type": "Point", "coordinates": [ 0.373567964264791, 42.667880316778295, 2032.275 ] } },
{ "type": "Feature", "properties": { "fid": 244, "nombre": "Refugio de la Cueva", "id": 244 }, "geometry": { "type": "Point", "coordinates": [ -0.622505502437582, 42.763174797927562, 1581.149999999999864 ] } },
{ "type": "Feature", "properties": { "fid": 245, "nombre": "Refugio Barleto", "id": 245 }, "geometry": { "type": "Point", "coordinates": [ 0.276806370071562, 42.639653047717751, 2196.800000000000182 ] } },
{ "type": "Feature", "properties": { "fid": 246, "nombre": "Cabana de Lliterola", "id": 246 }, "geometry": { "type": "Point", "coordinates": [ 0.553778383413025, 42.669508059760602, 2018.5 ] } },
{ "type": "Feature", "properties": { "fid": 247, "nombre": "Refugio l'Artica", "id": 247 }, "geometry": { "type": "Point", "coordinates": [ -0.980191029795808, 42.390727934756754, 997.975 ] } },
{ "type": "Feature", "properties": { "fid": 248, "nombre": "Refugio de Góriz", "id": 248 }, "geometry": { "type": "Point", "coordinates": [ 0.015002210756817, 42.663292205839795, 2192.875 ] } },
{ "type": "Feature", "properties": { "fid": 249, "nombre": "Cabana de Llosás", "id": 249 }, "geometry": { "type": "Point", "coordinates": [ 0.641648829865551, 42.609351181389499, 2209.35 ] } },
{ "type": "Feature", "properties": { "fid": 250, "nombre": "Caseta Chiniprés", "id": 250 }, "geometry": { "type": "Point", "coordinates": [ -0.497419960787583, 42.776462422626196, 1722.75 ] } },
{ "type": "Feature", "properties": { "fid": 251, "nombre": "Refugio del Rallero", "id": 251 }, "geometry": { "type": "Point", "coordinates": [ 0.254850938738943, 42.484073642877192, 1271.4 ] } },
{ "type": "Feature", "properties": { "fid": 252, "nombre": "Refugio de Cap de Llauset", "id": 252 }, "geometry": { "type": "Point", "coordinates": [ 0.683324477584477, 42.596257742933801, 2421.099999999999454 ] } },
{ "type": "Feature", "properties": { "fid": 253, "nombre": "Refugio de Santa María de Belsué", "id": 253 }, "geometry": { "type": "Point", "coordinates": [ -0.350476071019236, 42.301800732539846, 1003.0 ] } },
{ "type": "Feature", "properties": { "fid": 254, "nombre": "Refugio de las Bacias", "id": 254 }, "geometry": { "type": "Point", "coordinates": [ -0.671540440171449, 42.341372687456797, 1003.525 ] } },
{ "type": "Feature", "properties": { "fid": 255, "nombre": "Refugio Cadiera", "id": 255 }, "geometry": { "type": "Point", "coordinates": [ -0.040512033766459, 42.657447154998501, 1626.2 ] } },
{ "type": "Feature", "properties": { "fid": 256, "nombre": "Refugio de Yali", "id": 256 }, "geometry": { "type": "Point", "coordinates": [ 0.352894477955519, 42.476588128356454, 1478.75 ] } },
{ "type": "Feature", "properties": { "fid": 257, "nombre": "Refugio Vuelta de Iserías#Cabaña de la Vuelta de Iserías", "id": 257 }, "geometry": { "type": "Point", "coordinates": [ -0.481152071724131, 42.753876453490804, 1901.174999999999727 ] } },
{ "type": "Feature", "properties": { "fid": 258, "nombre": "Refugio Cabaña", "id": 258 }, "geometry": { "type": "Point", "coordinates": [ -0.02553306371305, 42.636131875468806, 1574.0 ] } },
{ "type": "Feature", "properties": { "fid": 259, "nombre": "Refugio de Telera", "id": 259 }, "geometry": { "type": "Point", "coordinates": [ -0.34929043362169, 42.7018490952576, 1542.25 ] } },
{ "type": "Feature", "properties": { "fid": 260, "nombre": "Refugio Caprariza#Refugio Carduso", "id": 260 }, "geometry": { "type": "Point", "coordinates": [ 0.047819635802009, 42.627850127199451, 1793.0 ] } },
{ "type": "Feature", "properties": { "fid": 261, "nombre": "Refugio de la Cadiera", "id": 261 }, "geometry": { "type": "Point", "coordinates": [ -0.045121710310048, 42.646823324641147, 1340.15 ] } },
{ "type": "Feature", "properties": { "fid": 262, "nombre": "Refugio Planas de Abozo#Refugio de Broto#Refugio de Sorrosal", "id": 262 }, "geometry": { "type": "Point", "coordinates": [ -0.170424799282379, 42.654566999874149, 1640.0 ] } },
{ "type": "Feature", "properties": { "fid": 263, "nombre": "Refugio del Barranco del Puerto#Refugio Furcunfiecho", "id": 263 }, "geometry": { "type": "Point", "coordinates": [ -0.35551064653765, 42.664298478054064, 1533.4 ] } },
{ "type": "Feature", "properties": { "fid": 264, "nombre": "Refugio Peguera", "id": 264 }, "geometry": { "type": "Point", "coordinates": [ 0.219635106307645, 42.565709471390598, 1315.675000000000182 ] } },
{ "type": "Feature", "properties": { "fid": 265, "nombre": "Refugio de la FAM", "id": 265 }, "geometry": { "type": "Point", "coordinates": [ -0.390342898343464, 42.738368114894548, 1704.524999999999864 ] } },
{ "type": "Feature", "properties": { "fid": 266, "nombre": "Refugio Monzarro", "id": 266 }, "geometry": { "type": "Point", "coordinates": [ 0.321698737610457, 42.638185000384489, 1980.225000000000136 ] } }
]
}
